{
  "type": "FeatureCollection",
  "generator": "overpass-ide",
  "copyright": "The data included in this document is from www.openstreetmap.org. The data is made available under ODbL.",
  "timestamp": "2019-07-12T19:33:02Z",
  "features": [
    {
      "type": "Feature",
      "properties": {
        "@id": "node/89377140",
        "amenity": "cafe",
        "internet_access": "yes",
        "internet_access:fee": "no",
        "name": "@The Park",
        "outdoor_seating": "yes"
      },
      "geometry": {
        "type": "Point",
        "coordinates": [
          4.4631918,
          51.1973745
        ]
      },
      "id": "node/89377140"
    },
    {
      "type": "Feature",
      "properties": {
        "@id": "node/254852601",
        "amenity": "cafe",
        "created_by": "JOSM",
        "name": "Las Vegas"
      },
      "geometry": {
        "type": "Point",
        "coordinates": [
          4.5068222,
          51.3202164
        ]
      },
      "id": "node/254852601"
    },
    {
      "type": "Feature",
      "properties": {
        "@id": "node/256147792",
        "amenity": "cafe",
        "cuisine": "regional",
        "name": "Leliehof",
        "sport": "tennis"
      },
      "geometry": {
        "type": "Point",
        "coordinates": [
          4.5729376,
          50.9134966
        ]
      },
      "id": "node/256147792"
    },
    {
      "type": "Feature",
      "properties": {
        "@id": "node/262370197",
        "amenity": "cafe",
        "name": "Sportcafé De Ark"
      },
      "geometry": {
        "type": "Point",
        "coordinates": [
          4.402079,
          51.1381114
        ]
      },
      "id": "node/262370197"
    },
    {
      "type": "Feature",
      "properties": {
        "@id": "node/266831998",
        "addr:city": "Schelle",
        "addr:housenumber": "325",
        "addr:postcode": "2627",
        "addr:street": "Tolhuisstraat",
        "amenity": "cafe",
        "cuisine": "regional",
        "name": "Tolhuis Veer",
        "website": "https://www.tolhuis-schelle.be/",
        "wifi": "no"
      },
      "geometry": {
        "type": "Point",
        "coordinates": [
          4.3130505,
          51.1181725
        ]
      },
      "id": "node/266831998"
    },
    {
      "type": "Feature",
      "properties": {
        "@id": "node/266832004",
        "addr:city": "Schelle",
        "addr:housenumber": "333",
        "addr:postcode": "2627",
        "addr:street": "Tolhuisstraat",
        "amenity": "cafe",
        "name": "Oud Tolhuis",
        "wifi": "no"
      },
      "geometry": {
        "type": "Point",
        "coordinates": [
          4.3130236,
          51.118351
        ]
      },
      "id": "node/266832004"
    },
    {
      "type": "Feature",
      "properties": {
        "@id": "node/266842682",
        "amenity": "cafe",
        "name": "De Notelaer"
      },
      "geometry": {
        "type": "Point",
        "coordinates": [
          4.2627841,
          51.115158
        ]
      },
      "id": "node/266842682"
    },
    {
      "type": "Feature",
      "properties": {
        "@id": "node/272753251",
        "amenity": "cafe",
        "name": "Trapkes Op"
      },
      "geometry": {
        "type": "Point",
        "coordinates": [
          4.2269257,
          50.9305317
        ]
      },
      "id": "node/272753251"
    },
    {
      "type": "Feature",
      "properties": {
        "@id": "node/274850756",
        "amenity": "cafe",
        "name": "Radio Venus"
      },
      "geometry": {
        "type": "Point",
        "coordinates": [
          4.6497012,
          51.0148277
        ]
      },
      "id": "node/274850756"
    },
    {
      "type": "Feature",
      "properties": {
        "@id": "node/274850757",
        "amenity": "cafe",
        "name": "Klein Kontich"
      },
      "geometry": {
        "type": "Point",
        "coordinates": [
          4.64965,
          51.0150688
        ]
      },
      "id": "node/274850757"
    },
    {
      "type": "Feature",
      "properties": {
        "@id": "node/275336709",
        "addr:city": "Leuven",
        "addr:housenumber": "1",
        "addr:postcode": "3000",
        "addr:street": "Leon Schreursvest",
        "amenity": "cafe",
        "level": "0",
        "name": "Kaminsky",
        "website": "https://www.kaminsky.be/"
      },
      "geometry": {
        "type": "Point",
        "coordinates": [
          4.7146719,
          50.8733594
        ]
      },
      "id": "node/275336709"
    },
    {
      "type": "Feature",
      "properties": {
        "@id": "node/276603635",
        "amenity": "cafe",
        "name": "De Werker"
      },
      "geometry": {
        "type": "Point",
        "coordinates": [
          4.1681492,
          50.9678175
        ]
      },
      "id": "node/276603635"
    },
    {
      "type": "Feature",
      "properties": {
        "@id": "node/278243227",
        "amenity": "cafe",
        "name": "Rio"
      },
      "geometry": {
        "type": "Point",
        "coordinates": [
          4.7531538,
          51.1740773
        ]
      },
      "id": "node/278243227"
    },
    {
      "type": "Feature",
      "properties": {
        "@id": "node/278549747",
        "addr:housenumber": "62",
        "addr:postcode": "2590",
        "addr:street": "Pastorijstraat",
        "amenity": "cafe",
        "name": "'t Stapveld",
        "opening_hours": "Mo-Th 13:00-24:00; We 09:00-12:00,13:00-24:00; Fr 12:00-24:00; Sa,Su 10:00-24:00",
        "phone": "+32 3 292 42 84"
      },
      "geometry": {
        "type": "Point",
        "coordinates": [
          4.6686697,
          51.1193642
        ]
      },
      "id": "node/278549747"
    },
    {
      "type": "Feature",
      "properties": {
        "@id": "node/278884333",
        "amenity": "cafe",
        "name": "'t Dorp"
      },
      "geometry": {
        "type": "Point",
        "coordinates": [
          4.7285735,
          51.1033411
        ]
      },
      "id": "node/278884333"
    },
    {
      "type": "Feature",
      "properties": {
        "@id": "node/278889542",
        "addr:city": "Heist-op-den-Berg",
        "addr:housenumber": "2",
        "addr:postcode": "2220",
        "addr:province": "Antwerpen",
        "addr:street": "Leopoldlei",
        "amenity": "cafe",
        "cuisine": "regional",
        "name": "Place2B"
      },
      "geometry": {
        "type": "Point",
        "coordinates": [
          4.7268983,
          51.0753166
        ]
      },
      "id": "node/278889542"
    },
    {
      "type": "Feature",
      "properties": {
        "@id": "node/278892533",
        "amenity": "cafe",
        "name": "Oud Kempisch Dorp"
      },
      "geometry": {
        "type": "Point",
        "coordinates": [
          4.7655165,
          51.03413
        ]
      },
      "id": "node/278892533"
    },
    {
      "type": "Feature",
      "properties": {
        "@id": "node/279233430",
        "amenity": "cafe",
        "name": "Mistery"
      },
      "geometry": {
        "type": "Point",
        "coordinates": [
          4.6724798,
          51.0810979
        ]
      },
      "id": "node/279233430"
    },
    {
      "type": "Feature",
      "properties": {
        "@id": "node/279556199",
        "addr:city": "Heist-op-den-Berg",
        "addr:housenumber": "2",
        "addr:postcode": "2220",
        "addr:province": "Antwerpen",
        "addr:street": "Bergstraat",
        "amenity": "cafe",
        "name": "'t Hoekske",
        "website": "https://www.eetkafee.be/dp/info-contact-ek"
      },
      "geometry": {
        "type": "Point",
        "coordinates": [
          4.7270471,
          51.0753027
        ]
      },
      "id": "node/279556199"
    },
    {
      "type": "Feature",
      "properties": {
        "@id": "node/279583943",
        "amenity": "cafe",
        "name": "Zaal Lux"
      },
      "geometry": {
        "type": "Point",
        "coordinates": [
          4.7290004,
          51.1038997
        ]
      },
      "id": "node/279583943"
    },
    {
      "type": "Feature",
      "properties": {
        "@id": "node/279583945",
        "amenity": "cafe",
        "name": "Trends"
      },
      "geometry": {
        "type": "Point",
        "coordinates": [
          4.7288093,
          51.1040415
        ]
      },
      "id": "node/279583945"
    },
    {
      "type": "Feature",
      "properties": {
        "@id": "node/280168505",
        "amenity": "cafe",
        "name": "Breugelhoeve"
      },
      "geometry": {
        "type": "Point",
        "coordinates": [
          4.6539442,
          51.165225
        ]
      },
      "id": "node/280168505"
    },
    {
      "type": "Feature",
      "properties": {
        "@id": "node/280277265",
        "amenity": "cafe",
        "name": "Raadshuis",
        "toilets:wheelchair": "no",
        "wheelchair": "limited"
      },
      "geometry": {
        "type": "Point",
        "coordinates": [
          4.7034032,
          50.9909098
        ]
      },
      "id": "node/280277265"
    },
    {
      "type": "Feature",
      "properties": {
        "@id": "node/280279877",
        "amenity": "cafe",
        "name": "Paloma",
        "toilets:wheelchair": "no",
        "wheelchair": "limited"
      },
      "geometry": {
        "type": "Point",
        "coordinates": [
          4.7060048,
          50.9927054
        ]
      },
      "id": "node/280279877"
    },
    {
      "type": "Feature",
      "properties": {
        "@id": "node/280392523",
        "addr:housenumber": "28",
        "addr:street": "Schoolstraat",
        "amenity": "cafe",
        "name": "Parochiecentrum",
        "outdoor_seating": "no"
      },
      "geometry": {
        "type": "Point",
        "coordinates": [
          4.725674,
          51.1036804
        ]
      },
      "id": "node/280392523"
    },
    {
      "type": "Feature",
      "properties": {
        "@id": "node/280394279",
        "amenity": "cafe"
      },
      "geometry": {
        "type": "Point",
        "coordinates": [
          4.7499463,
          51.0694079
        ]
      },
      "id": "node/280394279"
    },
    {
      "type": "Feature",
      "properties": {
        "@id": "node/280394915",
        "amenity": "cafe",
        "name": "Ons Genoegen"
      },
      "geometry": {
        "type": "Point",
        "coordinates": [
          4.7681237,
          51.0514464
        ]
      },
      "id": "node/280394915"
    },
    {
      "type": "Feature",
      "properties": {
        "@id": "node/280395057",
        "amenity": "cafe"
      },
      "geometry": {
        "type": "Point",
        "coordinates": [
          4.7739424,
          51.0510047
        ]
      },
      "id": "node/280395057"
    },
    {
      "type": "Feature",
      "properties": {
        "@id": "node/280395278",
        "amenity": "cafe",
        "name": "Brouwershuis"
      },
      "geometry": {
        "type": "Point",
        "coordinates": [
          4.7769842,
          51.0517668
        ]
      },
      "id": "node/280395278"
    },
    {
      "type": "Feature",
      "properties": {
        "@id": "node/280664454",
        "amenity": "cafe",
        "email": "Withof4@gmail.com",
        "image": "http://users.telenet.be/vvllks/zonderschot/images/withof2011-4.jpg",
        "name": "Zaal Withof",
        "phone": "+32 497 48 10 12",
        "website": "http://users.telenet.be/vvllks/zonderschot/withof.htm"
      },
      "geometry": {
        "type": "Point",
        "coordinates": [
          4.749214,
          51.0584269
        ]
      },
      "id": "node/280664454"
    },
    {
      "type": "Feature",
      "properties": {
        "@id": "node/289209579",
        "amenity": "cafe",
        "name": "Palmenhof"
      },
      "geometry": {
        "type": "Point",
        "coordinates": [
          4.7481485,
          51.1596316
        ]
      },
      "id": "node/289209579"
    },
    {
      "type": "Feature",
      "properties": {
        "@id": "node/289768480",
        "amenity": "cafe",
        "name": "Steeneik"
      },
      "geometry": {
        "type": "Point",
        "coordinates": [
          4.4953481,
          51.0694328
        ]
      },
      "id": "node/289768480"
    },
    {
      "type": "Feature",
      "properties": {
        "@id": "node/290852280",
        "amenity": "cafe",
        "name": "'t Stremijn"
      },
      "geometry": {
        "type": "Point",
        "coordinates": [
          3.8004668,
          51.2268869
        ]
      },
      "id": "node/290852280"
    },
    {
      "type": "Feature",
      "properties": {
        "@id": "node/291493497",
        "amenity": "cafe",
        "name": "'t Schuurke"
      },
      "geometry": {
        "type": "Point",
        "coordinates": [
          4.6791604,
          50.9558434
        ]
      },
      "id": "node/291493497"
    },
    {
      "type": "Feature",
      "properties": {
        "@id": "node/291502591",
        "amenity": "cafe",
        "name": "Nova"
      },
      "geometry": {
        "type": "Point",
        "coordinates": [
          4.7241249,
          51.0457551
        ]
      },
      "id": "node/291502591"
    },
    {
      "type": "Feature",
      "properties": {
        "@id": "node/291857243",
        "amenity": "cafe",
        "name": "De Wed"
      },
      "geometry": {
        "type": "Point",
        "coordinates": [
          4.5875822,
          51.00035
        ]
      },
      "id": "node/291857243"
    },
    {
      "type": "Feature",
      "properties": {
        "@id": "node/291967716",
        "amenity": "cafe",
        "name": "Lombard"
      },
      "geometry": {
        "type": "Point",
        "coordinates": [
          4.6393119,
          50.9756974
        ]
      },
      "id": "node/291967716"
    },
    {
      "type": "Feature",
      "properties": {
        "@id": "node/292088444",
        "amenity": "cafe",
        "name": "'t Pleintje"
      },
      "geometry": {
        "type": "Point",
        "coordinates": [
          4.656766,
          51.0285067
        ]
      },
      "id": "node/292088444"
    },
    {
      "type": "Feature",
      "properties": {
        "@id": "node/292094942",
        "amenity": "cafe",
        "name": "Tramhalt"
      },
      "geometry": {
        "type": "Point",
        "coordinates": [
          4.6433424,
          51.0857066
        ]
      },
      "id": "node/292094942"
    },
    {
      "type": "Feature",
      "properties": {
        "@id": "node/292098150",
        "amenity": "cafe"
      },
      "geometry": {
        "type": "Point",
        "coordinates": [
          4.6655455,
          51.0834013
        ]
      },
      "id": "node/292098150"
    },
    {
      "type": "Feature",
      "properties": {
        "@id": "node/293752430",
        "amenity": "cafe",
        "name": "De Leeuwerik"
      },
      "geometry": {
        "type": "Point",
        "coordinates": [
          4.6567822,
          51.0255942
        ]
      },
      "id": "node/293752430"
    },
    {
      "type": "Feature",
      "properties": {
        "@id": "node/293759381",
        "amenity": "cafe",
        "name": "'t Kruiske"
      },
      "geometry": {
        "type": "Point",
        "coordinates": [
          4.7063615,
          51.1287736
        ]
      },
      "id": "node/293759381"
    },
    {
      "type": "Feature",
      "properties": {
        "@id": "node/299323966",
        "amenity": "cafe",
        "name": "Dalhof"
      },
      "geometry": {
        "type": "Point",
        "coordinates": [
          4.5878501,
          51.1565784
        ]
      },
      "id": "node/299323966"
    },
    {
      "type": "Feature",
      "properties": {
        "@id": "node/303294906",
        "amenity": "cafe",
        "name": "In De Kroon"
      },
      "geometry": {
        "type": "Point",
        "coordinates": [
          4.4499229,
          50.8694258
        ]
      },
      "id": "node/303294906"
    },
    {
      "type": "Feature",
      "properties": {
        "@id": "node/305672451",
        "amenity": "cafe",
        "name": "Sporting Stella Artois"
      },
      "geometry": {
        "type": "Point",
        "coordinates": [
          4.4411546,
          50.8658621
        ]
      },
      "id": "node/305672451"
    },
    {
      "type": "Feature",
      "properties": {
        "@id": "node/306486824",
        "amenity": "cafe",
        "name": "Terras a/d Schelde"
      },
      "geometry": {
        "type": "Point",
        "coordinates": [
          4.3325783,
          51.1794765
        ]
      },
      "id": "node/306486824"
    },
    {
      "type": "Feature",
      "properties": {
        "@id": "node/309512008",
        "amenity": "cafe",
        "name": "Natuur.Cafetaria"
      },
      "geometry": {
        "type": "Point",
        "coordinates": [
          3.6823929,
          51.0667945
        ]
      },
      "id": "node/309512008"
    },
    {
      "type": "Feature",
      "properties": {
        "@id": "node/310744609",
        "amenity": "cafe",
        "name": "De Lantaarn"
      },
      "geometry": {
        "type": "Point",
        "coordinates": [
          4.4727578,
          50.8789262
        ]
      },
      "id": "node/310744609"
    },
    {
      "type": "Feature",
      "properties": {
        "@id": "node/346358326",
        "amenity": "cafe",
        "cuisine": "regional",
        "name": "REVUE",
        "opening_hours": "Mo-Su 11:00-22:00; We off",
        "website": "http://www.revue-gent.be/"
      },
      "geometry": {
        "type": "Point",
        "coordinates": [
          3.7213892,
          51.0490221
        ]
      },
      "id": "node/346358326"
    },
    {
      "type": "Feature",
      "properties": {
        "@id": "node/348354614",
        "addr:city": "Oelegem",
        "addr:country": "BE",
        "addr:housenumber": "97",
        "addr:postcode": "2520",
        "addr:street": "Schildesteenweg",
        "amenity": "cafe",
        "name": "Brasserie-Taverne Remise",
        "website": "http://www.remise-oelegem.be/"
      },
      "geometry": {
        "type": "Point",
        "coordinates": [
          4.6058684,
          51.2186884
        ]
      },
      "id": "node/348354614"
    },
    {
      "type": "Feature",
      "properties": {
        "@id": "node/352862857",
        "addr:housenumber": "31",
        "addr:postcode": "1040",
        "addr:street": "Place Van Meyel - Van Meyelplein",
        "amenity": "cafe",
        "name": "La Magie du pain",
        "name:fr": "Terracotta",
        "ref:UrbIS": "5102323"
      },
      "geometry": {
        "type": "Point",
        "coordinates": [
          4.388703,
          50.8366584
        ]
      },
      "id": "node/352862857"
    },
    {
      "type": "Feature",
      "properties": {
        "@id": "node/354483364",
        "amenity": "cafe",
        "name": "Cafe de Molekens"
      },
      "geometry": {
        "type": "Point",
        "coordinates": [
          4.5070438,
          50.9174922
        ]
      },
      "id": "node/354483364"
    },
    {
      "type": "Feature",
      "properties": {
        "@id": "node/355220662",
        "amenity": "cafe",
        "created_by": "Potlatch 0.10f",
        "name": "Praat- en Eetcafé Groenendijk"
      },
      "geometry": {
        "type": "Point",
        "coordinates": [
          4.1901659,
          51.1035384
        ]
      },
      "id": "node/355220662"
    },
    {
      "type": "Feature",
      "properties": {
        "@id": "node/364142083",
        "amenity": "cafe"
      },
      "geometry": {
        "type": "Point",
        "coordinates": [
          4.7181395,
          51.1955035
        ]
      },
      "id": "node/364142083"
    },
    {
      "type": "Feature",
      "properties": {
        "@id": "node/364681873",
        "amenity": "cafe",
        "name": "The Corner"
      },
      "geometry": {
        "type": "Point",
        "coordinates": [
          4.4337565,
          50.8377254
        ]
      },
      "id": "node/364681873"
    },
    {
      "type": "Feature",
      "properties": {
        "@id": "node/371735403",
        "addr:city": "Kontich",
        "addr:country": "BE",
        "addr:housenumber": "35",
        "addr:postcode": "2550",
        "addr:street": "Koningin Astridlaan",
        "amenity": "cafe",
        "description": "Genieten Ontdekken Sfeer Toasten Ontspannen",
        "name": "GOSTO",
        "opening_hours": "We-Th 15:00-00:00; Fr-Sa 15:00-02:00; Su 15:00-01:00",
        "website": "https://gostowijnproeverij.wixsite.com/bier-enwijnlounge"
      },
      "geometry": {
        "type": "Point",
        "coordinates": [
          4.4532327,
          51.1279355
        ]
      },
      "id": "node/371735403"
    },
    {
      "type": "Feature",
      "properties": {
        "@id": "node/385164012",
        "amenity": "cafe",
        "name": "Le Pigeon Rapide"
      },
      "geometry": {
        "type": "Point",
        "coordinates": [
          4.4396688,
          50.8357824
        ]
      },
      "id": "node/385164012"
    },
    {
      "type": "Feature",
      "properties": {
        "@id": "node/385181258",
        "addr:housenumber": "53",
        "addr:postcode": "2000",
        "addr:street": "Kasteelpleinstraat",
        "alt_name": "Mico's",
        "amenity": "cafe",
        "contact:facebook": "https://www.facebook.com/pg/Micosbistro/",
        "email": "lhyjonathan@gmail.com",
        "name": "Mico's Bistro",
        "opening_hours": "Mo,Tu,Th-Sa 12:00-16:30; We,Su off",
        "phone": "+32 485 14 62 07"
      },
      "geometry": {
        "type": "Point",
        "coordinates": [
          4.4021005,
          51.2101343
        ]
      },
      "id": "node/385181258"
    },
    {
      "type": "Feature",
      "properties": {
        "@id": "node/385181414",
        "addr:housenumber": "14",
        "addr:postcode": "2000",
        "addr:street": "Marnixplaats",
        "amenity": "cafe",
        "name": "Vitrin",
        "opening_hours": "Mo-Sa 10:00-00:00; Su 11:00-00:00",
        "website": "https://vitrin.eu/"
      },
      "geometry": {
        "type": "Point",
        "coordinates": [
          4.3970063,
          51.2101587
        ]
      },
      "id": "node/385181414"
    },
    {
      "type": "Feature",
      "properties": {
        "@id": "node/386133059",
        "amenity": "cafe",
        "name": "Lievekenshoeve"
      },
      "geometry": {
        "type": "Point",
        "coordinates": [
          4.6307521,
          51.2360145
        ]
      },
      "id": "node/386133059"
    },
    {
      "type": "Feature",
      "properties": {
        "@id": "node/386142875",
        "amenity": "cafe",
        "name": "De Stroopop"
      },
      "geometry": {
        "type": "Point",
        "coordinates": [
          4.6399881,
          51.2268266
        ]
      },
      "id": "node/386142875"
    },
    {
      "type": "Feature",
      "properties": {
        "@id": "node/394817304",
        "amenity": "cafe",
        "name": "Madelon"
      },
      "geometry": {
        "type": "Point",
        "coordinates": [
          4.4923245,
          50.8403728
        ]
      },
      "id": "node/394817304"
    },
    {
      "type": "Feature",
      "properties": {
        "@id": "node/402491502",
        "addr:city": "Woluwe-Saint-Lambert - Sint-Lambrechts-Woluwe",
        "addr:housenumber": "209",
        "addr:postcode": "1200",
        "addr:street": "Avenue des Cerisiers - Kerselarenlaan",
        "amenity": "cafe",
        "name": "Le Diplo"
      },
      "geometry": {
        "type": "Point",
        "coordinates": [
          4.4147265,
          50.8460563
        ]
      },
      "id": "node/402491502"
    },
    {
      "type": "Feature",
      "properties": {
        "@id": "node/409005527",
        "addr:city": "Plancenoit",
        "addr:country": "BE",
        "addr:housenumber": "22",
        "addr:postcode": "1380",
        "addr:street": "Place de Plancenoit",
        "amenity": "cafe",
        "contact:phone": "+32 479 65 41 41",
        "name": "Le Gros Vélo",
        "phone": "+32 2 633 17 46"
      },
      "geometry": {
        "type": "Point",
        "coordinates": [
          4.4290747,
          50.6602564
        ]
      },
      "id": "node/409005527"
    },
    {
      "type": "Feature",
      "properties": {
        "@id": "node/409773807",
        "amenity": "cafe",
        "name": "In Den Congo"
      },
      "geometry": {
        "type": "Point",
        "coordinates": [
          4.5583604,
          50.8343464
        ]
      },
      "id": "node/409773807"
    },
    {
      "type": "Feature",
      "properties": {
        "@id": "node/410162289",
        "amenity": "cafe",
        "name": "Bij Christine"
      },
      "geometry": {
        "type": "Point",
        "coordinates": [
          3.9408035,
          50.7170993
        ]
      },
      "id": "node/410162289"
    },
    {
      "type": "Feature",
      "properties": {
        "@id": "node/410458635",
        "amenity": "cafe",
        "name": "Effe Naf"
      },
      "geometry": {
        "type": "Point",
        "coordinates": [
          4.4491862,
          50.9247512
        ]
      },
      "id": "node/410458635"
    },
    {
      "type": "Feature",
      "properties": {
        "@id": "node/412437187",
        "amenity": "cafe",
        "name": "Bij Sonja"
      },
      "geometry": {
        "type": "Point",
        "coordinates": [
          4.423564,
          50.9188069
        ]
      },
      "id": "node/412437187"
    },
    {
      "type": "Feature",
      "properties": {
        "@id": "node/412437193",
        "amenity": "cafe",
        "name": "De Posthoorn"
      },
      "geometry": {
        "type": "Point",
        "coordinates": [
          4.4260292,
          50.9246803
        ]
      },
      "id": "node/412437193"
    },
    {
      "type": "Feature",
      "properties": {
        "@id": "node/412437209",
        "amenity": "cafe",
        "name": "Taverne K.G.B."
      },
      "geometry": {
        "type": "Point",
        "coordinates": [
          4.4231875,
          50.931289
        ]
      },
      "id": "node/412437209"
    },
    {
      "type": "Feature",
      "properties": {
        "@id": "node/413462757",
        "amenity": "cafe",
        "name": "New Rock Vallee"
      },
      "geometry": {
        "type": "Point",
        "coordinates": [
          4.4174253,
          50.9054511
        ]
      },
      "id": "node/413462757"
    },
    {
      "type": "Feature",
      "properties": {
        "@id": "node/413469630",
        "amenity": "cafe",
        "name": "De Koninck"
      },
      "geometry": {
        "type": "Point",
        "coordinates": [
          4.4257973,
          50.9302262
        ]
      },
      "id": "node/413469630"
    },
    {
      "type": "Feature",
      "properties": {
        "@id": "node/413481351",
        "amenity": "cafe",
        "name": "Café Galaxy"
      },
      "geometry": {
        "type": "Point",
        "coordinates": [
          4.4545952,
          50.9616066
        ]
      },
      "id": "node/413481351"
    },
    {
      "type": "Feature",
      "properties": {
        "@id": "node/413481355",
        "amenity": "cafe",
        "name": "Café Baja-Baja"
      },
      "geometry": {
        "type": "Point",
        "coordinates": [
          4.4569476,
          50.9595316
        ]
      },
      "id": "node/413481355"
    },
    {
      "type": "Feature",
      "properties": {
        "@id": "node/414135441",
        "amenity": "cafe",
        "name": "'t Spieke",
        "wheelchair": "limited"
      },
      "geometry": {
        "type": "Point",
        "coordinates": [
          4.5156163,
          50.862908
        ]
      },
      "id": "node/414135441"
    },
    {
      "type": "Feature",
      "properties": {
        "@id": "node/416880137",
        "addr:housenumber": "176",
        "addr:street": "Duisburgersesteenweg",
        "amenity": "cafe",
        "name": "Bij Jokker"
      },
      "geometry": {
        "type": "Point",
        "coordinates": [
          4.5500963,
          50.7992995
        ]
      },
      "id": "node/416880137"
    },
    {
      "type": "Feature",
      "properties": {
        "@id": "node/416880144",
        "amenity": "cafe",
        "name": "'t Faillissement"
      },
      "geometry": {
        "type": "Point",
        "coordinates": [
          4.5517382,
          50.815821
        ]
      },
      "id": "node/416880144"
    },
    {
      "type": "Feature",
      "properties": {
        "@id": "node/418012722",
        "amenity": "cafe",
        "name": "Maritime"
      },
      "geometry": {
        "type": "Point",
        "coordinates": [
          4.6652923,
          50.9394651
        ]
      },
      "id": "node/418012722"
    },
    {
      "type": "Feature",
      "properties": {
        "@id": "node/420530810",
        "addr:city": "Mariaburg",
        "addr:country": "BE",
        "addr:housenumber": "567",
        "addr:postcode": "2180",
        "addr:street": "Kapelsesteenweg",
        "amenity": "cafe",
        "cuisine": "sandwich",
        "name": "Babelle"
      },
      "geometry": {
        "type": "Point",
        "coordinates": [
          4.4434991,
          51.2928192
        ]
      },
      "id": "node/420530810"
    },
    {
      "type": "Feature",
      "properties": {
        "@id": "node/431655702",
        "addr:housenumber": "237",
        "addr:street": "Aarschotsesteenweg",
        "amenity": "cafe",
        "cuisine": "sandwich",
        "name": "Bij Sophie"
      },
      "geometry": {
        "type": "Point",
        "coordinates": [
          4.7156822,
          50.9147541
        ]
      },
      "id": "node/431655702"
    },
    {
      "type": "Feature",
      "properties": {
        "@id": "node/432643368",
        "amenity": "cafe",
        "name": "New Corner"
      },
      "geometry": {
        "type": "Point",
        "coordinates": [
          4.4224806,
          50.9010685
        ]
      },
      "id": "node/432643368"
    },
    {
      "type": "Feature",
      "properties": {
        "@id": "node/440179898",
        "addr:city": "Oelegem",
        "addr:country": "BE",
        "addr:housenumber": "54",
        "addr:postcode": "2520",
        "addr:street": "Achterstraat",
        "amenity": "cafe",
        "name": "Boerenhof",
        "phone": "+32 3 383 44 51"
      },
      "geometry": {
        "type": "Point",
        "coordinates": [
          4.5960721,
          51.210719
        ]
      },
      "id": "node/440179898"
    },
    {
      "type": "Feature",
      "properties": {
        "@id": "node/460414729",
        "addr:city": "Leuven",
        "addr:housenumber": "28",
        "addr:postcode": "3000",
        "addr:street": "Parijsstraat",
        "amenity": "cafe",
        "cuisine": "coffee_shop",
        "name": "Koffie Onan",
        "website": "http://www.koffieonan.be"
      },
      "geometry": {
        "type": "Point",
        "coordinates": [
          4.6990495,
          50.8785691
        ]
      },
      "id": "node/460414729"
    },
    {
      "type": "Feature",
      "properties": {
        "@id": "node/460625484",
        "addr:city": "Leuven",
        "addr:housenumber": "146",
        "addr:street": "Brusselsestraat",
        "amenity": "cafe",
        "level": "0",
        "name": "The Ten Twenty",
        "postal_code": "3000",
        "website": "http://www.thetentwenty.be"
      },
      "geometry": {
        "type": "Point",
        "coordinates": [
          4.6930994,
          50.8807378
        ]
      },
      "id": "node/460625484"
    },
    {
      "type": "Feature",
      "properties": {
        "@id": "node/460937723",
        "amenity": "cafe",
        "name": "Bij De Vanger"
      },
      "geometry": {
        "type": "Point",
        "coordinates": [
          4.4100436,
          50.9251044
        ]
      },
      "id": "node/460937723"
    },
    {
      "type": "Feature",
      "properties": {
        "@id": "node/460948589",
        "amenity": "cafe"
      },
      "geometry": {
        "type": "Point",
        "coordinates": [
          4.4095876,
          50.9266149
        ]
      },
      "id": "node/460948589"
    },
    {
      "type": "Feature",
      "properties": {
        "@id": "node/461853538",
        "amenity": "cafe",
        "name": "Sporting Hove"
      },
      "geometry": {
        "type": "Point",
        "coordinates": [
          4.475636,
          51.1520925
        ]
      },
      "id": "node/461853538"
    },
    {
      "type": "Feature",
      "properties": {
        "@id": "node/461989620",
        "amenity": "cafe",
        "name": "'t Lof"
      },
      "geometry": {
        "type": "Point",
        "coordinates": [
          4.1367628,
          50.8495729
        ]
      },
      "id": "node/461989620"
    },
    {
      "type": "Feature",
      "properties": {
        "@id": "node/462214428",
        "amenity": "cafe",
        "name": "Bij Den Bouggy"
      },
      "geometry": {
        "type": "Point",
        "coordinates": [
          4.3958782,
          50.9253731
        ]
      },
      "id": "node/462214428"
    },
    {
      "type": "Feature",
      "properties": {
        "@id": "node/465198100",
        "amenity": "cafe",
        "name": "De Vrede"
      },
      "geometry": {
        "type": "Point",
        "coordinates": [
          4.081857,
          50.883491
        ]
      },
      "id": "node/465198100"
    },
    {
      "type": "Feature",
      "properties": {
        "@id": "node/471723365",
        "addr:city": "Hingene",
        "addr:housenumber": "81",
        "addr:postcode": "2880",
        "addr:street": "Edmond Vleminckxstraat",
        "amenity": "cafe",
        "cuisine": "regional",
        "name": "In d'Oude Poort"
      },
      "geometry": {
        "type": "Point",
        "coordinates": [
          4.2710139,
          51.1077475
        ]
      },
      "id": "node/471723365"
    },
    {
      "type": "Feature",
      "properties": {
        "@id": "node/476280017",
        "amenity": "cafe",
        "name": "Nieuw Kwartier"
      },
      "geometry": {
        "type": "Point",
        "coordinates": [
          4.4006108,
          50.9417481
        ]
      },
      "id": "node/476280017"
    },
    {
      "type": "Feature",
      "properties": {
        "@id": "node/481004310",
        "amenity": "cafe",
        "name": "De Rebus"
      },
      "geometry": {
        "type": "Point",
        "coordinates": [
          4.3769014,
          50.96586
        ]
      },
      "id": "node/481004310"
    },
    {
      "type": "Feature",
      "properties": {
        "@id": "node/481072877",
        "amenity": "cafe",
        "name": "The Puller"
      },
      "geometry": {
        "type": "Point",
        "coordinates": [
          4.3734617,
          50.935477
        ]
      },
      "id": "node/481072877"
    },
    {
      "type": "Feature",
      "properties": {
        "@id": "node/492276036",
        "amenity": "cafe",
        "name": "Eetcafé Eldorado"
      },
      "geometry": {
        "type": "Point",
        "coordinates": [
          4.3894551,
          50.9778172
        ]
      },
      "id": "node/492276036"
    },
    {
      "type": "Feature",
      "properties": {
        "@id": "node/492372273",
        "amenity": "cafe",
        "name": "Achter Bax"
      },
      "geometry": {
        "type": "Point",
        "coordinates": [
          4.3625245,
          50.9534762
        ]
      },
      "id": "node/492372273"
    },
    {
      "type": "Feature",
      "properties": {
        "@id": "node/494578938",
        "addr:city": "Boechout",
        "addr:country": "BE",
        "addr:housenumber": "8",
        "addr:postcode": "2530",
        "addr:street": "St. Bavoplein",
        "amenity": "cafe",
        "name": "Gildenhuis St Bavo"
      },
      "geometry": {
        "type": "Point",
        "coordinates": [
          4.4926673,
          51.1594169
        ]
      },
      "id": "node/494578938"
    },
    {
      "type": "Feature",
      "properties": {
        "@id": "node/494890888",
        "addr:housenumber": "132",
        "addr:street": "Tervuursesteenweg",
        "amenity": "cafe",
        "name": "Brouwerij"
      },
      "geometry": {
        "type": "Point",
        "coordinates": [
          4.4966869,
          50.933636
        ]
      },
      "id": "node/494890888"
    },
    {
      "type": "Feature",
      "properties": {
        "@id": "node/494890890",
        "amenity": "cafe",
        "name": "'t Pleintje"
      },
      "geometry": {
        "type": "Point",
        "coordinates": [
          4.4970053,
          50.9329021
        ]
      },
      "id": "node/494890890"
    },
    {
      "type": "Feature",
      "properties": {
        "@id": "node/494911198",
        "amenity": "cafe",
        "name": "Teniers"
      },
      "geometry": {
        "type": "Point",
        "coordinates": [
          4.4969938,
          50.9325721
        ]
      },
      "id": "node/494911198"
    },
    {
      "type": "Feature",
      "properties": {
        "@id": "node/500350370",
        "amenity": "cafe",
        "name": "Den witten Hert"
      },
      "geometry": {
        "type": "Point",
        "coordinates": [
          4.4560823,
          51.2201652
        ]
      },
      "id": "node/500350370"
    },
    {
      "type": "Feature",
      "properties": {
        "@id": "node/500362321",
        "amenity": "cafe"
      },
      "geometry": {
        "type": "Point",
        "coordinates": [
          4.4663732,
          51.2241928
        ]
      },
      "id": "node/500362321"
    },
    {
      "type": "Feature",
      "properties": {
        "@id": "node/500377031",
        "amenity": "cafe",
        "name": "Sterckxhof"
      },
      "geometry": {
        "type": "Point",
        "coordinates": [
          4.4619358,
          51.214897
        ]
      },
      "id": "node/500377031"
    },
    {
      "type": "Feature",
      "properties": {
        "@id": "node/500898224",
        "amenity": "cafe",
        "name": "Sint Hubertus"
      },
      "geometry": {
        "type": "Point",
        "coordinates": [
          4.4976635,
          50.9583832
        ]
      },
      "id": "node/500898224"
    },
    {
      "type": "Feature",
      "properties": {
        "@id": "node/500898226",
        "amenity": "cafe",
        "name": "Café Boekt"
      },
      "geometry": {
        "type": "Point",
        "coordinates": [
          4.4973979,
          50.9560418
        ]
      },
      "id": "node/500898226"
    },
    {
      "type": "Feature",
      "properties": {
        "@id": "node/502370377",
        "amenity": "cafe",
        "name": "Den Biechtstoel"
      },
      "geometry": {
        "type": "Point",
        "coordinates": [
          4.5488478,
          50.9419614
        ]
      },
      "id": "node/502370377"
    },
    {
      "type": "Feature",
      "properties": {
        "@id": "node/502971839",
        "amenity": "cafe",
        "name": "Den Dries"
      },
      "geometry": {
        "type": "Point",
        "coordinates": [
          4.5081949,
          50.9653065
        ]
      },
      "id": "node/502971839"
    },
    {
      "type": "Feature",
      "properties": {
        "@id": "node/502971847",
        "amenity": "cafe",
        "name": "Willem Tell"
      },
      "geometry": {
        "type": "Point",
        "coordinates": [
          4.506969,
          50.9651924
        ]
      },
      "id": "node/502971847"
    },
    {
      "type": "Feature",
      "properties": {
        "@id": "node/506664507",
        "amenity": "cafe",
        "name": "De Linde",
        "wheelchair": "no"
      },
      "geometry": {
        "type": "Point",
        "coordinates": [
          4.4765538,
          50.9117332
        ]
      },
      "id": "node/506664507"
    },
    {
      "type": "Feature",
      "properties": {
        "@id": "node/506705383",
        "amenity": "cafe",
        "name": "Sunset"
      },
      "geometry": {
        "type": "Point",
        "coordinates": [
          4.5198947,
          50.9038417
        ]
      },
      "id": "node/506705383"
    },
    {
      "type": "Feature",
      "properties": {
        "@id": "node/506718596",
        "amenity": "cafe",
        "name": "Jet-Live Tavern"
      },
      "geometry": {
        "type": "Point",
        "coordinates": [
          4.5133428,
          50.9004161
        ]
      },
      "id": "node/506718596"
    },
    {
      "type": "Feature",
      "properties": {
        "@id": "node/510153193",
        "amenity": "cafe",
        "name": "Welkom Thuis"
      },
      "geometry": {
        "type": "Point",
        "coordinates": [
          4.5645956,
          50.9421527
        ]
      },
      "id": "node/510153193"
    },
    {
      "type": "Feature",
      "properties": {
        "@id": "node/510162818",
        "amenity": "cafe",
        "name": "at George's"
      },
      "geometry": {
        "type": "Point",
        "coordinates": [
          4.5851944,
          50.9512393
        ]
      },
      "id": "node/510162818"
    },
    {
      "type": "Feature",
      "properties": {
        "@id": "node/510188181",
        "amenity": "cafe",
        "name": "De Brug"
      },
      "geometry": {
        "type": "Point",
        "coordinates": [
          4.5592981,
          50.9749239
        ]
      },
      "id": "node/510188181"
    },
    {
      "type": "Feature",
      "properties": {
        "@id": "node/510283132",
        "amenity": "cafe",
        "name": "75"
      },
      "geometry": {
        "type": "Point",
        "coordinates": [
          4.5199809,
          50.9856192
        ]
      },
      "id": "node/510283132"
    },
    {
      "type": "Feature",
      "properties": {
        "@id": "node/513817802",
        "amenity": "cafe"
      },
      "geometry": {
        "type": "Point",
        "coordinates": [
          3.5726188,
          50.9509653
        ]
      },
      "id": "node/513817802"
    },
    {
      "type": "Feature",
      "properties": {
        "@id": "node/517877338",
        "amenity": "cafe",
        "name": "'t Ven"
      },
      "geometry": {
        "type": "Point",
        "coordinates": [
          4.6113543,
          51.1653767
        ]
      },
      "id": "node/517877338"
    },
    {
      "type": "Feature",
      "properties": {
        "@id": "node/519784938",
        "amenity": "cafe",
        "name": "Burnout"
      },
      "geometry": {
        "type": "Point",
        "coordinates": [
          4.4959713,
          50.9673025
        ]
      },
      "id": "node/519784938"
    },
    {
      "type": "Feature",
      "properties": {
        "@id": "node/519835907",
        "amenity": "cafe",
        "name": "Nova"
      },
      "geometry": {
        "type": "Point",
        "coordinates": [
          4.5211941,
          50.9865476
        ]
      },
      "id": "node/519835907"
    },
    {
      "type": "Feature",
      "properties": {
        "@id": "node/519835909",
        "amenity": "cafe",
        "name": "'t Stamkroegske"
      },
      "geometry": {
        "type": "Point",
        "coordinates": [
          4.5289171,
          50.9926123
        ]
      },
      "id": "node/519835909"
    },
    {
      "type": "Feature",
      "properties": {
        "@id": "node/519835939",
        "amenity": "cafe"
      },
      "geometry": {
        "type": "Point",
        "coordinates": [
          4.5346617,
          50.9889163
        ]
      },
      "id": "node/519835939"
    },
    {
      "type": "Feature",
      "properties": {
        "@id": "node/525890171",
        "amenity": "cafe",
        "name": "De Warande"
      },
      "geometry": {
        "type": "Point",
        "coordinates": [
          4.5729947,
          50.9819823
        ]
      },
      "id": "node/525890171"
    },
    {
      "type": "Feature",
      "properties": {
        "@id": "node/525891450",
        "amenity": "cafe",
        "name": "De Rode Molen"
      },
      "geometry": {
        "type": "Point",
        "coordinates": [
          4.5716375,
          50.9809596
        ]
      },
      "id": "node/525891450"
    },
    {
      "type": "Feature",
      "properties": {
        "@id": "node/525891662",
        "amenity": "cafe",
        "name": "De Lierenhoek"
      },
      "geometry": {
        "type": "Point",
        "coordinates": [
          4.5736097,
          50.980314
        ]
      },
      "id": "node/525891662"
    },
    {
      "type": "Feature",
      "properties": {
        "@id": "node/527007379",
        "amenity": "cafe",
        "name": "Café Afspanning"
      },
      "geometry": {
        "type": "Point",
        "coordinates": [
          4.6053343,
          50.9474988
        ]
      },
      "id": "node/527007379"
    },
    {
      "type": "Feature",
      "properties": {
        "@id": "node/527030289",
        "amenity": "cafe",
        "name": "Old Time"
      },
      "geometry": {
        "type": "Point",
        "coordinates": [
          4.6223706,
          50.9019598
        ]
      },
      "id": "node/527030289"
    },
    {
      "type": "Feature",
      "properties": {
        "@id": "node/549139001",
        "amenity": "cafe",
        "name": "'t Moek"
      },
      "geometry": {
        "type": "Point",
        "coordinates": [
          4.6296389,
          50.8635558
        ]
      },
      "id": "node/549139001"
    },
    {
      "type": "Feature",
      "properties": {
        "@id": "node/549341536",
        "amenity": "cafe"
      },
      "geometry": {
        "type": "Point",
        "coordinates": [
          4.6037651,
          51.0244379
        ]
      },
      "id": "node/549341536"
    },
    {
      "type": "Feature",
      "properties": {
        "@id": "node/549770885",
        "amenity": "cafe",
        "name": "'t Volkhuis"
      },
      "geometry": {
        "type": "Point",
        "coordinates": [
          4.6317969,
          50.8661662
        ]
      },
      "id": "node/549770885"
    },
    {
      "type": "Feature",
      "properties": {
        "@id": "node/549788509",
        "addr:housenumber": "201",
        "amenity": "cafe",
        "name": "De Dorpskroeg"
      },
      "geometry": {
        "type": "Point",
        "coordinates": [
          4.6598341,
          50.8617201
        ]
      },
      "id": "node/549788509"
    },
    {
      "type": "Feature",
      "properties": {
        "@id": "node/556954935",
        "addr:city": "Wilrijk",
        "addr:country": "BE",
        "addr:housenumber": "68",
        "addr:postcode": "2610",
        "addr:street": "Bosheidelaan",
        "amenity": "cafe",
        "name": "Den Brem",
        "website": "http://www.denbrem.be"
      },
      "geometry": {
        "type": "Point",
        "coordinates": [
          4.3786854,
          51.1757172
        ]
      },
      "id": "node/556954935"
    },
    {
      "type": "Feature",
      "properties": {
        "@id": "node/559175083",
        "amenity": "cafe",
        "name": "St-Bavo hoeve"
      },
      "geometry": {
        "type": "Point",
        "coordinates": [
          3.8240855,
          51.1478364
        ]
      },
      "id": "node/559175083"
    },
    {
      "type": "Feature",
      "properties": {
        "@id": "node/559455977",
        "amenity": "cafe",
        "name": "Den Travoo",
        "name:nl": "Den Travoo"
      },
      "geometry": {
        "type": "Point",
        "coordinates": [
          4.6737546,
          50.9040455
        ]
      },
      "id": "node/559455977"
    },
    {
      "type": "Feature",
      "properties": {
        "@id": "node/560607459",
        "addr:city": "Boechout",
        "addr:country": "BE",
        "addr:housenumber": "19",
        "addr:postcode": "2530",
        "addr:street": "Sint Bavoplein",
        "amenity": "cafe",
        "name": "Baràbas"
      },
      "geometry": {
        "type": "Point",
        "coordinates": [
          4.4913558,
          51.1590002
        ]
      },
      "id": "node/560607459"
    },
    {
      "type": "Feature",
      "properties": {
        "@id": "node/563976566",
        "amenity": "cafe",
        "name": "La Cléf des Champs"
      },
      "geometry": {
        "type": "Point",
        "coordinates": [
          4.3963825,
          50.8682372
        ]
      },
      "id": "node/563976566"
    },
    {
      "type": "Feature",
      "properties": {
        "@id": "node/566313995",
        "addr:city": "Gent",
        "addr:housenumber": "5",
        "addr:postcode": "9000",
        "addr:street": "Annonciadenstraat",
        "amenity": "cafe",
        "internet_access": "yes",
        "name": "De Loge",
        "outdoor_seating": "yes",
        "website": "http://deloge.be/"
      },
      "geometry": {
        "type": "Point",
        "coordinates": [
          3.7168939,
          51.0499561
        ]
      },
      "id": "node/566313995"
    },
    {
      "type": "Feature",
      "properties": {
        "@id": "node/571836781",
        "amenity": "cafe",
        "name": "New Avenir"
      },
      "geometry": {
        "type": "Point",
        "coordinates": [
          4.3937282,
          50.8741855
        ]
      },
      "id": "node/571836781"
    },
    {
      "type": "Feature",
      "properties": {
        "@id": "node/571880946",
        "amenity": "cafe",
        "name": "La Grande Ferme"
      },
      "geometry": {
        "type": "Point",
        "coordinates": [
          4.3991963,
          50.89905
        ]
      },
      "id": "node/571880946"
    },
    {
      "type": "Feature",
      "properties": {
        "@id": "node/574849365",
        "amenity": "cafe",
        "name": "Au Bon Coin"
      },
      "geometry": {
        "type": "Point",
        "coordinates": [
          4.3927382,
          50.8962835
        ]
      },
      "id": "node/574849365"
    },
    {
      "type": "Feature",
      "properties": {
        "@id": "node/579259388",
        "amenity": "cafe"
      },
      "geometry": {
        "type": "Point",
        "coordinates": [
          4.4640569,
          51.2229802
        ]
      },
      "id": "node/579259388"
    },
    {
      "type": "Feature",
      "properties": {
        "@id": "node/579260235",
        "amenity": "cafe"
      },
      "geometry": {
        "type": "Point",
        "coordinates": [
          4.4627694,
          51.2221873
        ]
      },
      "id": "node/579260235"
    },
    {
      "type": "Feature",
      "properties": {
        "@id": "node/582518639",
        "amenity": "cafe",
        "name": "L'Ambiance"
      },
      "geometry": {
        "type": "Point",
        "coordinates": [
          4.3842906,
          50.8798325
        ]
      },
      "id": "node/582518639"
    },
    {
      "type": "Feature",
      "properties": {
        "@id": "node/582518640",
        "amenity": "cafe",
        "name": "London Bar"
      },
      "geometry": {
        "type": "Point",
        "coordinates": [
          4.3840805,
          50.8799736
        ]
      },
      "id": "node/582518640"
    },
    {
      "type": "Feature",
      "properties": {
        "@id": "node/587756541",
        "addr:city": "Schaerbeek - Schaarbeek",
        "addr:housenumber": "1",
        "addr:postcode": "1030",
        "addr:street": "Avenue Georges Eekhoud - Georges Eekhoudlaan",
        "amenity": "cafe",
        "name": "Le Bariga"
      },
      "geometry": {
        "type": "Point",
        "coordinates": [
          4.387085,
          50.8754692
        ]
      },
      "id": "node/587756541"
    },
    {
      "type": "Feature",
      "properties": {
        "@id": "node/588439673",
        "amenity": "cafe",
        "name": "New Streek-Inn"
      },
      "geometry": {
        "type": "Point",
        "coordinates": [
          4.3722333,
          50.9133053
        ]
      },
      "id": "node/588439673"
    },
    {
      "type": "Feature",
      "properties": {
        "@id": "node/610830541",
        "addr:housenumber": "157",
        "addr:street": "Hoogstraat",
        "amenity": "cafe",
        "name": "La Luna"
      },
      "geometry": {
        "type": "Point",
        "coordinates": [
          4.4669348,
          50.8822661
        ]
      },
      "id": "node/610830541"
    },
    {
      "type": "Feature",
      "properties": {
        "@id": "node/610830553",
        "amenity": "cafe",
        "name": "'t Volkhuis"
      },
      "geometry": {
        "type": "Point",
        "coordinates": [
          4.4712033,
          50.8836935
        ]
      },
      "id": "node/610830553"
    },
    {
      "type": "Feature",
      "properties": {
        "@id": "node/610830556",
        "amenity": "cafe",
        "name": "New Seventy Seven"
      },
      "geometry": {
        "type": "Point",
        "coordinates": [
          4.4693558,
          50.8853745
        ]
      },
      "id": "node/610830556"
    },
    {
      "type": "Feature",
      "properties": {
        "@id": "node/611733432",
        "addr:city": "Leuven",
        "addr:housenumber": "17A",
        "addr:postcode": "3000",
        "addr:street": "Leopold Vanderkelenstraat",
        "amenity": "cafe",
        "name": "Punto Caffè",
        "website": "http://www.puntocaffe.be"
      },
      "geometry": {
        "type": "Point",
        "coordinates": [
          4.7040056,
          50.8795888
        ]
      },
      "id": "node/611733432"
    },
    {
      "type": "Feature",
      "properties": {
        "@id": "node/612399848",
        "addr:city": "Leuven",
        "addr:housenumber": "2",
        "addr:postcode": "3000",
        "addr:street": "Diestsestraat",
        "amenity": "cafe",
        "name": "Brasserie Deauville",
        "ref:vatin": "BE0448152569"
      },
      "geometry": {
        "type": "Point",
        "coordinates": [
          4.7022166,
          50.8795656
        ]
      },
      "id": "node/612399848"
    },
    {
      "type": "Feature",
      "properties": {
        "@id": "node/615362985",
        "amenity": "cafe",
        "name": "Centrum"
      },
      "geometry": {
        "type": "Point",
        "coordinates": [
          4.3518353,
          50.9093149
        ]
      },
      "id": "node/615362985"
    },
    {
      "type": "Feature",
      "properties": {
        "@id": "node/616362806",
        "amenity": "cafe",
        "diaper": "yes",
        "internet_access": "wlan",
        "name": "Le Mustache",
        "opening_hours": "Mo 11:00-18:00; Tu-Th 09:00-18:00; Fr 09:00-17:00; Sa 09:00-15:00; Su 10:00-15:00",
        "toilets": "yes",
        "wheelchair": "no"
      },
      "geometry": {
        "type": "Point",
        "coordinates": [
          4.7090074,
          50.875546
        ]
      },
      "id": "node/616362806"
    },
    {
      "type": "Feature",
      "properties": {
        "@id": "node/616580639",
        "addr:housenumber": "21",
        "addr:street": "Place de l'Université",
        "amenity": "cafe",
        "level": "2",
        "name": "Le Coup de Théâtre"
      },
      "geometry": {
        "type": "Point",
        "coordinates": [
          4.6153719,
          50.670233
        ]
      },
      "id": "node/616580639"
    },
    {
      "type": "Feature",
      "properties": {
        "@id": "node/633681233",
        "addr:city": "Linkebeek",
        "addr:postcode": "1630",
        "addr:street": "Sint-Sebastiaanstraat - Rue Saint-Sébastien",
        "amenity": "cafe",
        "name": "Eetcafe De Moelie"
      },
      "geometry": {
        "type": "Point",
        "coordinates": [
          4.3351413,
          50.7731622
        ]
      },
      "id": "node/633681233"
    },
    {
      "type": "Feature",
      "properties": {
        "@id": "node/641352170",
        "amenity": "cafe",
        "name": "De Ster"
      },
      "geometry": {
        "type": "Point",
        "coordinates": [
          4.3329592,
          51.2101137
        ]
      },
      "id": "node/641352170"
    },
    {
      "type": "Feature",
      "properties": {
        "@id": "node/642092961",
        "amenity": "cafe",
        "name": "Le Wilson"
      },
      "geometry": {
        "type": "Point",
        "coordinates": [
          4.3804246,
          50.8488796
        ]
      },
      "id": "node/642092961"
    },
    {
      "type": "Feature",
      "properties": {
        "@id": "node/642094471",
        "amenity": "cafe",
        "name": "Café Arnas"
      },
      "geometry": {
        "type": "Point",
        "coordinates": [
          4.3806553,
          50.8489228
        ]
      },
      "id": "node/642094471"
    },
    {
      "type": "Feature",
      "properties": {
        "@id": "node/649213908",
        "amenity": "cafe",
        "name": "Sporting"
      },
      "geometry": {
        "type": "Point",
        "coordinates": [
          4.4756586,
          50.8872421
        ]
      },
      "id": "node/649213908"
    },
    {
      "type": "Feature",
      "properties": {
        "@id": "node/649228953",
        "amenity": "cafe",
        "name": "Briefing"
      },
      "geometry": {
        "type": "Point",
        "coordinates": [
          4.4713941,
          50.8896761
        ]
      },
      "id": "node/649228953"
    },
    {
      "type": "Feature",
      "properties": {
        "@id": "node/649228956",
        "amenity": "cafe",
        "name": "Transit Café"
      },
      "geometry": {
        "type": "Point",
        "coordinates": [
          4.4735593,
          50.8889436
        ]
      },
      "id": "node/649228956"
    },
    {
      "type": "Feature",
      "properties": {
        "@id": "node/654146034",
        "amenity": "cafe",
        "name": "The Myth"
      },
      "geometry": {
        "type": "Point",
        "coordinates": [
          4.3629852,
          50.9365383
        ]
      },
      "id": "node/654146034"
    },
    {
      "type": "Feature",
      "properties": {
        "@id": "node/662157286",
        "amenity": "cafe",
        "name": "het Eiland"
      },
      "geometry": {
        "type": "Point",
        "coordinates": [
          4.3049873,
          50.9391535
        ]
      },
      "id": "node/662157286"
    },
    {
      "type": "Feature",
      "properties": {
        "@id": "node/662186960",
        "amenity": "cafe",
        "name": "Den Beiaard"
      },
      "geometry": {
        "type": "Point",
        "coordinates": [
          4.3271128,
          50.9341715
        ]
      },
      "id": "node/662186960"
    },
    {
      "type": "Feature",
      "properties": {
        "@id": "node/665851837",
        "amenity": "cafe",
        "name": "Jeugdhuis 't Sloefke"
      },
      "geometry": {
        "type": "Point",
        "coordinates": [
          4.3068547,
          50.9508298
        ]
      },
      "id": "node/665851837"
    },
    {
      "type": "Feature",
      "properties": {
        "@id": "node/665864937",
        "amenity": "cafe",
        "name": "De Volle Pot"
      },
      "geometry": {
        "type": "Point",
        "coordinates": [
          4.3182432,
          50.9586396
        ]
      },
      "id": "node/665864937"
    },
    {
      "type": "Feature",
      "properties": {
        "@id": "node/678904739",
        "amenity": "cafe",
        "name": "Nova"
      },
      "geometry": {
        "type": "Point",
        "coordinates": [
          3.8870545,
          51.006371
        ]
      },
      "id": "node/678904739"
    },
    {
      "type": "Feature",
      "properties": {
        "@id": "node/683386205",
        "amenity": "cafe",
        "name": "Bøn"
      },
      "geometry": {
        "type": "Point",
        "coordinates": [
          3.8838647,
          51.0068404
        ]
      },
      "id": "node/683386205"
    },
    {
      "type": "Feature",
      "properties": {
        "@id": "node/689382934",
        "amenity": "cafe",
        "name": "'T Schippershof"
      },
      "geometry": {
        "type": "Point",
        "coordinates": [
          4.3690694,
          51.0000075
        ]
      },
      "id": "node/689382934"
    },
    {
      "type": "Feature",
      "properties": {
        "@id": "node/694699365",
        "amenity": "cafe",
        "name": "De Eendracht"
      },
      "geometry": {
        "type": "Point",
        "coordinates": [
          4.4509687,
          51.101015
        ]
      },
      "id": "node/694699365"
    },
    {
      "type": "Feature",
      "properties": {
        "@id": "node/702058297",
        "amenity": "cafe",
        "name": "Aubisque"
      },
      "geometry": {
        "type": "Point",
        "coordinates": [
          3.5336079,
          50.9771569
        ]
      },
      "id": "node/702058297"
    },
    {
      "type": "Feature",
      "properties": {
        "@id": "node/702262413",
        "amenity": "cafe",
        "name": "Falstaff"
      },
      "geometry": {
        "type": "Point",
        "coordinates": [
          3.5253609,
          50.9863174
        ]
      },
      "id": "node/702262413"
    },
    {
      "type": "Feature",
      "properties": {
        "@id": "node/703169108",
        "amenity": "cafe",
        "name": "Cafetaria Ter Heide"
      },
      "geometry": {
        "type": "Point",
        "coordinates": [
          4.4969243,
          50.9871984
        ]
      },
      "id": "node/703169108"
    },
    {
      "type": "Feature",
      "properties": {
        "@id": "node/703169112",
        "amenity": "cafe",
        "name": "'t Hoekske",
        "outdoor_seating": "yes"
      },
      "geometry": {
        "type": "Point",
        "coordinates": [
          4.4920468,
          50.9918579
        ]
      },
      "id": "node/703169112"
    },
    {
      "type": "Feature",
      "properties": {
        "@id": "node/703282447",
        "amenity": "cafe",
        "name": "Belvedere"
      },
      "geometry": {
        "type": "Point",
        "coordinates": [
          4.4966198,
          50.9676171
        ]
      },
      "id": "node/703282447"
    },
    {
      "type": "Feature",
      "properties": {
        "@id": "node/708490601",
        "addr:city": "Bruxelles - Brussel",
        "addr:housenumber": "9",
        "addr:postcode": "1000",
        "addr:street": "Galerie du Roi - Koningsgalerij",
        "amenity": "cafe",
        "contact:phone": "+32 2 5117870",
        "name": "Mokafe",
        "opening_hours": "Mo-Su 07:00-23:00",
        "toilets:wheelchair": "no",
        "wheelchair": "yes"
      },
      "geometry": {
        "type": "Point",
        "coordinates": [
          4.3553663,
          50.848052
        ]
      },
      "id": "node/708490601"
    },
    {
      "type": "Feature",
      "properties": {
        "@id": "node/710882760",
        "amenity": "cafe",
        "name": "H & V"
      },
      "geometry": {
        "type": "Point",
        "coordinates": [
          4.608831,
          50.716168
        ]
      },
      "id": "node/710882760"
    },
    {
      "type": "Feature",
      "properties": {
        "@id": "node/714030664",
        "addr:city": "Bruxelles - Brussel",
        "addr:housenumber": "3-5",
        "addr:postcode": "1040",
        "addr:street": "Avenue d'Auderghem - Oudergemlaan",
        "amenity": "cafe",
        "contact:email": "schuman@artsnbagels.com",
        "contact:phone": "+32 2 7250433",
        "contact:website": "http://www.artsnbagels.com/",
        "name": "Art's & Bagels",
        "opening_hours": "Mo-Fr 06:45-17:30; Sa-Su 11:00-16:00"
      },
      "geometry": {
        "type": "Point",
        "coordinates": [
          4.3840573,
          50.8417945
        ]
      },
      "id": "node/714030664"
    },
    {
      "type": "Feature",
      "properties": {
        "@id": "node/715405318",
        "amenity": "cafe",
        "name": "Sportarena"
      },
      "geometry": {
        "type": "Point",
        "coordinates": [
          4.3593325,
          51.0123542
        ]
      },
      "id": "node/715405318"
    },
    {
      "type": "Feature",
      "properties": {
        "@id": "node/715412336",
        "amenity": "cafe",
        "name": "De Rembrandt"
      },
      "geometry": {
        "type": "Point",
        "coordinates": [
          4.3639406,
          51.012142
        ]
      },
      "id": "node/715412336"
    },
    {
      "type": "Feature",
      "properties": {
        "@id": "node/727343622",
        "amenity": "cafe",
        "name": "Steendonk"
      },
      "geometry": {
        "type": "Point",
        "coordinates": [
          4.3145879,
          50.9553224
        ]
      },
      "id": "node/727343622"
    },
    {
      "type": "Feature",
      "properties": {
        "@id": "node/727394543",
        "amenity": "cafe",
        "name": "Sporthuis"
      },
      "geometry": {
        "type": "Point",
        "coordinates": [
          4.3298287,
          51.0087045
        ]
      },
      "id": "node/727394543"
    },
    {
      "type": "Feature",
      "properties": {
        "@id": "node/734455059",
        "amenity": "cafe",
        "name": "De Vedette"
      },
      "geometry": {
        "type": "Point",
        "coordinates": [
          4.2754491,
          51.0744193
        ]
      },
      "id": "node/734455059"
    },
    {
      "type": "Feature",
      "properties": {
        "@id": "node/734455080",
        "amenity": "cafe",
        "name": "De Flamingo",
        "outdoor_seating": "no"
      },
      "geometry": {
        "type": "Point",
        "coordinates": [
          4.282157,
          51.0760057
        ]
      },
      "id": "node/734455080"
    },
    {
      "type": "Feature",
      "properties": {
        "@id": "node/734455099",
        "amenity": "cafe",
        "name": "Excelsior"
      },
      "geometry": {
        "type": "Point",
        "coordinates": [
          4.2832621,
          51.074826
        ]
      },
      "id": "node/734455099"
    },
    {
      "type": "Feature",
      "properties": {
        "@id": "node/734957553",
        "amenity": "cafe",
        "name": "Sint-Martinus"
      },
      "geometry": {
        "type": "Point",
        "coordinates": [
          3.6231244,
          50.8346321
        ]
      },
      "id": "node/734957553"
    },
    {
      "type": "Feature",
      "properties": {
        "@id": "node/745792121",
        "amenity": "cafe",
        "name": "Den Baas"
      },
      "geometry": {
        "type": "Point",
        "coordinates": [
          4.3059448,
          50.9733891
        ]
      },
      "id": "node/745792121"
    },
    {
      "type": "Feature",
      "properties": {
        "@id": "node/745806147",
        "amenity": "cafe",
        "name": "In den sportwereld"
      },
      "geometry": {
        "type": "Point",
        "coordinates": [
          4.307645,
          51.0075525
        ]
      },
      "id": "node/745806147"
    },
    {
      "type": "Feature",
      "properties": {
        "@id": "node/745806193",
        "amenity": "cafe",
        "name": "'t neerhof"
      },
      "geometry": {
        "type": "Point",
        "coordinates": [
          4.2991763,
          50.9841589
        ]
      },
      "id": "node/745806193"
    },
    {
      "type": "Feature",
      "properties": {
        "@id": "node/746302536",
        "addr:housenumber": "3",
        "addr:postcode": "1860",
        "addr:street": "'s Herenweg",
        "amenity": "cafe",
        "name": "IJs- en Koffiesalon Brixius",
        "website": "http://www.3d69.be/brixius/"
      },
      "geometry": {
        "type": "Point",
        "coordinates": [
          4.3260984,
          50.9564654
        ]
      },
      "id": "node/746302536"
    },
    {
      "type": "Feature",
      "properties": {
        "@id": "node/746309451",
        "amenity": "cafe",
        "name": "Oud Limburg"
      },
      "geometry": {
        "type": "Point",
        "coordinates": [
          4.2995214,
          51.0084244
        ]
      },
      "id": "node/746309451"
    },
    {
      "type": "Feature",
      "properties": {
        "@id": "node/747006501",
        "amenity": "cafe",
        "name": "Victoria"
      },
      "geometry": {
        "type": "Point",
        "coordinates": [
          4.5867388,
          50.8812133
        ]
      },
      "id": "node/747006501"
    },
    {
      "type": "Feature",
      "properties": {
        "@id": "node/751802476",
        "amenity": "cafe",
        "name": "Cafe Inn"
      },
      "geometry": {
        "type": "Point",
        "coordinates": [
          4.3511821,
          50.8495124
        ]
      },
      "id": "node/751802476"
    },
    {
      "type": "Feature",
      "properties": {
        "@id": "node/755792996",
        "addr:city": "Leuven",
        "addr:housenumber": "45",
        "addr:postcode": "3000",
        "addr:street": "Mechelsestraat",
        "amenity": "cafe",
        "level": "0",
        "name": "De Tartine",
        "ref:vatin": "BE0810086095"
      },
      "geometry": {
        "type": "Point",
        "coordinates": [
          4.6993952,
          50.8810888
        ]
      },
      "id": "node/755792996"
    },
    {
      "type": "Feature",
      "properties": {
        "@id": "node/764418699",
        "amenity": "cafe",
        "name": "Sportwereld"
      },
      "geometry": {
        "type": "Point",
        "coordinates": [
          4.2614067,
          50.9946672
        ]
      },
      "id": "node/764418699"
    },
    {
      "type": "Feature",
      "properties": {
        "@id": "node/764418733",
        "amenity": "cafe",
        "name": "Bij den Tamara"
      },
      "geometry": {
        "type": "Point",
        "coordinates": [
          4.2640246,
          50.9950722
        ]
      },
      "id": "node/764418733"
    },
    {
      "type": "Feature",
      "properties": {
        "@id": "node/764418767",
        "amenity": "cafe",
        "name": "'t een en 't ander"
      },
      "geometry": {
        "type": "Point",
        "coordinates": [
          4.2645326,
          50.9945179
        ]
      },
      "id": "node/764418767"
    },
    {
      "type": "Feature",
      "properties": {
        "@id": "node/764418780",
        "amenity": "cafe",
        "name": "'t Brouwershuis"
      },
      "geometry": {
        "type": "Point",
        "coordinates": [
          4.2686763,
          50.9956378
        ]
      },
      "id": "node/764418780"
    },
    {
      "type": "Feature",
      "properties": {
        "@id": "node/765275142",
        "addr:housenumber": "5",
        "addr:street": "Kapelstraat",
        "amenity": "cafe",
        "name": "Willebroekstad"
      },
      "geometry": {
        "type": "Point",
        "coordinates": [
          4.3552805,
          51.052601
        ]
      },
      "id": "node/765275142"
    },
    {
      "type": "Feature",
      "properties": {
        "@id": "node/765281626",
        "amenity": "cafe",
        "name": "Den Arend"
      },
      "geometry": {
        "type": "Point",
        "coordinates": [
          4.3630473,
          51.0600706
        ]
      },
      "id": "node/765281626"
    },
    {
      "type": "Feature",
      "properties": {
        "@id": "node/766934028",
        "addr:housenumber": "65",
        "addr:street": "Stationsstraat",
        "amenity": "cafe",
        "name": "Stationneke"
      },
      "geometry": {
        "type": "Point",
        "coordinates": [
          4.2950297,
          50.7904178
        ]
      },
      "id": "node/766934028"
    },
    {
      "type": "Feature",
      "properties": {
        "@id": "node/768222462",
        "amenity": "cafe",
        "name": "'t Korenveld"
      },
      "geometry": {
        "type": "Point",
        "coordinates": [
          4.2616387,
          50.8092122
        ]
      },
      "id": "node/768222462"
    },
    {
      "type": "Feature",
      "properties": {
        "@id": "node/769482801",
        "amenity": "cafe",
        "name": "Glazen Huis",
        "outdoor_seating": "yes",
        "toilets:wheelchair": "no",
        "wheelchair": "no"
      },
      "geometry": {
        "type": "Point",
        "coordinates": [
          4.3030854,
          50.9096566
        ]
      },
      "id": "node/769482801"
    },
    {
      "type": "Feature",
      "properties": {
        "@id": "node/771191824",
        "amenity": "cafe",
        "name": "Clash",
        "opening_hours": "We-Su 12:00-14:30,18:30-22:00"
      },
      "geometry": {
        "type": "Point",
        "coordinates": [
          4.2779433,
          50.9366315
        ]
      },
      "id": "node/771191824"
    },
    {
      "type": "Feature",
      "properties": {
        "@id": "node/771195741",
        "amenity": "cafe",
        "name": "Bij Jean en Tinneke"
      },
      "geometry": {
        "type": "Point",
        "coordinates": [
          4.2661689,
          50.9265326
        ]
      },
      "id": "node/771195741"
    },
    {
      "type": "Feature",
      "properties": {
        "@id": "node/771197203",
        "amenity": "cafe",
        "name": "Mayabee"
      },
      "geometry": {
        "type": "Point",
        "coordinates": [
          4.264428,
          50.9265992
        ]
      },
      "id": "node/771197203"
    },
    {
      "type": "Feature",
      "properties": {
        "@id": "node/771200374",
        "amenity": "cafe",
        "name": "De Notelaar"
      },
      "geometry": {
        "type": "Point",
        "coordinates": [
          4.2704523,
          50.9250015
        ]
      },
      "id": "node/771200374"
    },
    {
      "type": "Feature",
      "properties": {
        "@id": "node/771201433",
        "amenity": "cafe",
        "name": "'t Sas"
      },
      "geometry": {
        "type": "Point",
        "coordinates": [
          4.2821375,
          50.9206931
        ]
      },
      "id": "node/771201433"
    },
    {
      "type": "Feature",
      "properties": {
        "@id": "node/774482970",
        "amenity": "cafe",
        "name": "Oude Drie Leien"
      },
      "geometry": {
        "type": "Point",
        "coordinates": [
          3.6634728,
          51.0390741
        ]
      },
      "id": "node/774482970"
    },
    {
      "type": "Feature",
      "properties": {
        "@id": "node/787124981",
        "amenity": "cafe",
        "name": "De Vakke"
      },
      "geometry": {
        "type": "Point",
        "coordinates": [
          4.3572686,
          51.0559328
        ]
      },
      "id": "node/787124981"
    },
    {
      "type": "Feature",
      "properties": {
        "@id": "node/791726136",
        "addr:housenumber": "210",
        "addr:street": "Dendermondsesteenweg",
        "amenity": "cafe",
        "name": "Rustiek"
      },
      "geometry": {
        "type": "Point",
        "coordinates": [
          4.346,
          51.0592487
        ]
      },
      "id": "node/791726136"
    },
    {
      "type": "Feature",
      "properties": {
        "@id": "node/792498667",
        "amenity": "cafe",
        "name": "Ossel - Star"
      },
      "geometry": {
        "type": "Point",
        "coordinates": [
          4.2802611,
          50.9222003
        ]
      },
      "id": "node/792498667"
    },
    {
      "type": "Feature",
      "properties": {
        "@id": "node/799254923",
        "amenity": "cafe",
        "name": "De Statie"
      },
      "geometry": {
        "type": "Point",
        "coordinates": [
          4.3793772,
          51.0455609
        ]
      },
      "id": "node/799254923"
    },
    {
      "type": "Feature",
      "properties": {
        "@id": "node/801073643",
        "addr:housenumber": "353",
        "addr:street": "Bergensesteenweg",
        "amenity": "cafe",
        "name": "In de piste"
      },
      "geometry": {
        "type": "Point",
        "coordinates": [
          4.2801646,
          50.7892964
        ]
      },
      "id": "node/801073643"
    },
    {
      "type": "Feature",
      "properties": {
        "@id": "node/805597654",
        "amenity": "cafe",
        "name": "The Race"
      },
      "geometry": {
        "type": "Point",
        "coordinates": [
          4.575044,
          50.9859639
        ]
      },
      "id": "node/805597654"
    },
    {
      "type": "Feature",
      "properties": {
        "@id": "node/805615371",
        "addr:housenumber": "71",
        "addr:street": "Stationstraat",
        "amenity": "cafe",
        "name": "Annex"
      },
      "geometry": {
        "type": "Point",
        "coordinates": [
          4.5422631,
          50.8915965
        ]
      },
      "id": "node/805615371"
    },
    {
      "type": "Feature",
      "properties": {
        "@id": "node/809724414",
        "addr:street": "Brusselsesteenweg",
        "amenity": "cafe",
        "is_in": "Vlaams-Brabant,Belgium",
        "name": "Prins Leopold"
      },
      "geometry": {
        "type": "Point",
        "coordinates": [
          4.4630163,
          50.9836859
        ]
      },
      "id": "node/809724414"
    },
    {
      "type": "Feature",
      "properties": {
        "@id": "node/809766383",
        "amenity": "cafe",
        "name": "In Den Bareel"
      },
      "geometry": {
        "type": "Point",
        "coordinates": [
          4.4183516,
          51.0331491
        ]
      },
      "id": "node/809766383"
    },
    {
      "type": "Feature",
      "properties": {
        "@id": "node/809820567",
        "amenity": "cafe",
        "name": "Halfweg"
      },
      "geometry": {
        "type": "Point",
        "coordinates": [
          4.3529059,
          51.0619584
        ]
      },
      "id": "node/809820567"
    },
    {
      "type": "Feature",
      "properties": {
        "@id": "node/809820613",
        "amenity": "cafe",
        "name": "Palmke"
      },
      "geometry": {
        "type": "Point",
        "coordinates": [
          4.3543872,
          51.0616347
        ]
      },
      "id": "node/809820613"
    },
    {
      "type": "Feature",
      "properties": {
        "@id": "node/809869140",
        "amenity": "cafe",
        "name": "Vaertland"
      },
      "geometry": {
        "type": "Point",
        "coordinates": [
          4.3536356,
          51.0600104
        ]
      },
      "id": "node/809869140"
    },
    {
      "type": "Feature",
      "properties": {
        "@id": "node/813178741",
        "amenity": "cafe",
        "name": "Mont Blanc",
        "wheelchair": "yes"
      },
      "geometry": {
        "type": "Point",
        "coordinates": [
          4.5135833,
          50.8244549
        ]
      },
      "id": "node/813178741"
    },
    {
      "type": "Feature",
      "properties": {
        "@id": "node/829488456",
        "addr:housenumber": "142",
        "addr:street": "Fabriekstraat",
        "amenity": "cafe",
        "name": "The new bar"
      },
      "geometry": {
        "type": "Point",
        "coordinates": [
          4.2922262,
          50.7839421
        ]
      },
      "id": "node/829488456"
    },
    {
      "type": "Feature",
      "properties": {
        "@id": "node/842511516",
        "amenity": "cafe",
        "name": "L'Is 'T Waar?"
      },
      "geometry": {
        "type": "Point",
        "coordinates": [
          4.6558191,
          50.827044
        ]
      },
      "id": "node/842511516"
    },
    {
      "type": "Feature",
      "properties": {
        "@id": "node/848837068",
        "amenity": "cafe",
        "name": "Sint Jozef"
      },
      "geometry": {
        "type": "Point",
        "coordinates": [
          4.5819395,
          50.9458251
        ]
      },
      "id": "node/848837068"
    },
    {
      "type": "Feature",
      "properties": {
        "@id": "node/849993659",
        "addr:city": "Oelegem",
        "addr:country": "BE",
        "addr:housenumber": "89",
        "addr:postcode": "2520",
        "addr:street": "Oudstrijdersstraat",
        "amenity": "cafe",
        "name": "Pousse-Café"
      },
      "geometry": {
        "type": "Point",
        "coordinates": [
          4.5899763,
          51.2136898
        ]
      },
      "id": "node/849993659"
    },
    {
      "type": "Feature",
      "properties": {
        "@id": "node/855527461",
        "amenity": "cafe",
        "name": "Cartouche"
      },
      "geometry": {
        "type": "Point",
        "coordinates": [
          4.7732664,
          51.3293805
        ]
      },
      "id": "node/855527461"
    },
    {
      "type": "Feature",
      "properties": {
        "@id": "node/867278746",
        "amenity": "cafe",
        "name": "Rozenhof"
      },
      "geometry": {
        "type": "Point",
        "coordinates": [
          4.5108898,
          50.8625404
        ]
      },
      "id": "node/867278746"
    },
    {
      "type": "Feature",
      "properties": {
        "@id": "node/870097935",
        "addr:city": "Leuven",
        "addr:housenumber": "14",
        "addr:postcode": "3000",
        "addr:street": "Naamsestraat",
        "amenity": "cafe",
        "cuisine": "Coffee & bagel bar",
        "name": "Nosh"
      },
      "geometry": {
        "type": "Point",
        "coordinates": [
          4.7006786,
          50.878491
        ]
      },
      "id": "node/870097935"
    },
    {
      "type": "Feature",
      "properties": {
        "@id": "node/870247035",
        "amenity": "cafe",
        "happy_hours": "Mo-Sa 20:00-21:00",
        "internet_access": "wlan",
        "internet_access:fee": "no",
        "name": "Cafe De Markten",
        "opening_hours": "Mo-Sa 11:00-23:00; Su 11:00-18:00",
        "outdoor_seating": "yes",
        "smoking": "no",
        "takeaway": "no",
        "wheelchair": "limited"
      },
      "geometry": {
        "type": "Point",
        "coordinates": [
          4.3467468,
          50.8504401
        ]
      },
      "id": "node/870247035"
    },
    {
      "type": "Feature",
      "properties": {
        "@id": "node/879074605",
        "amenity": "cafe",
        "horeca:type:nl": "eetcafe",
        "name": "De Kille",
        "outdoor_seating": "yes"
      },
      "geometry": {
        "type": "Point",
        "coordinates": [
          4.1515815,
          51.0584206
        ]
      },
      "id": "node/879074605"
    },
    {
      "type": "Feature",
      "properties": {
        "@id": "node/893388589",
        "amenity": "cafe",
        "name": "Excelsior Snack"
      },
      "geometry": {
        "type": "Point",
        "coordinates": [
          4.4562364,
          50.8849858
        ]
      },
      "id": "node/893388589"
    },
    {
      "type": "Feature",
      "properties": {
        "@id": "node/911890293",
        "amenity": "cafe",
        "name": "TC De Hasselt"
      },
      "geometry": {
        "type": "Point",
        "coordinates": [
          4.285693,
          51.0746503
        ]
      },
      "id": "node/911890293"
    },
    {
      "type": "Feature",
      "properties": {
        "@id": "node/918142432",
        "amenity": "cafe",
        "name": "De Jeppe"
      },
      "geometry": {
        "type": "Point",
        "coordinates": [
          4.4587968,
          50.962488
        ]
      },
      "id": "node/918142432"
    },
    {
      "type": "Feature",
      "properties": {
        "@id": "node/918182789",
        "amenity": "cafe",
        "name": "Het Brughuis"
      },
      "geometry": {
        "type": "Point",
        "coordinates": [
          4.4213878,
          51.0350029
        ]
      },
      "id": "node/918182789"
    },
    {
      "type": "Feature",
      "properties": {
        "@id": "node/928006305",
        "addr:city": "Oelegem",
        "addr:country": "BE",
        "addr:housenumber": "2",
        "addr:postcode": "2520",
        "addr:street": "Kerkhoflei",
        "amenity": "cafe",
        "name": "De Linde",
        "phone": "+32 3 345 86 69"
      },
      "geometry": {
        "type": "Point",
        "coordinates": [
          4.5964018,
          51.2103606
        ]
      },
      "id": "node/928006305"
    },
    {
      "type": "Feature",
      "properties": {
        "@id": "node/936412306",
        "amenity": "cafe",
        "name": "Huis Ten Halve"
      },
      "geometry": {
        "type": "Point",
        "coordinates": [
          4.2948934,
          51.0148036
        ]
      },
      "id": "node/936412306"
    },
    {
      "type": "Feature",
      "properties": {
        "@id": "node/938568237",
        "amenity": "cafe",
        "name": "Kasteelhoeve"
      },
      "geometry": {
        "type": "Point",
        "coordinates": [
          4.7635658,
          50.8954406
        ]
      },
      "id": "node/938568237"
    },
    {
      "type": "Feature",
      "properties": {
        "@id": "node/943781798",
        "amenity": "cafe",
        "name": "de zandloper",
        "wheelchair": "no"
      },
      "geometry": {
        "type": "Point",
        "coordinates": [
          4.3005674,
          50.9077558
        ]
      },
      "id": "node/943781798"
    },
    {
      "type": "Feature",
      "properties": {
        "@id": "node/945021348",
        "addr:housenumber": "300",
        "addr:street": "Diestsesteenweg",
        "amenity": "cafe",
        "name": "Taverne 't Paviljoen",
        "note": "tavern",
        "wheelchair": "yes"
      },
      "geometry": {
        "type": "Point",
        "coordinates": [
          4.7317007,
          50.8847075
        ]
      },
      "id": "node/945021348"
    },
    {
      "type": "Feature",
      "properties": {
        "@id": "node/950670438",
        "amenity": "cafe",
        "name": "Belle-Vue"
      },
      "geometry": {
        "type": "Point",
        "coordinates": [
          4.3936596,
          51.1224125
        ]
      },
      "id": "node/950670438"
    },
    {
      "type": "Feature",
      "properties": {
        "@id": "node/954546467",
        "amenity": "cafe",
        "name": "Aquarius"
      },
      "geometry": {
        "type": "Point",
        "coordinates": [
          4.3128033,
          50.9036778
        ]
      },
      "id": "node/954546467"
    },
    {
      "type": "Feature",
      "properties": {
        "@id": "node/955781229",
        "addr:housenumber": "253",
        "addr:street": "Diestsesteenweg",
        "amenity": "cafe",
        "name": "De Leuvenaar"
      },
      "geometry": {
        "type": "Point",
        "coordinates": [
          4.7261394,
          50.884419
        ]
      },
      "id": "node/955781229"
    },
    {
      "type": "Feature",
      "properties": {
        "@id": "node/957295136",
        "addr:housenumber": "141",
        "addr:street": "Vorstsesteenweg",
        "amenity": "cafe",
        "name": "Rood huis"
      },
      "geometry": {
        "type": "Point",
        "coordinates": [
          4.2993585,
          50.7941174
        ]
      },
      "id": "node/957295136"
    },
    {
      "type": "Feature",
      "properties": {
        "@id": "node/963404756",
        "amenity": "cafe",
        "name": "Café Central",
        "opening_hours": "Tu-Su 10:30+; Mo off"
      },
      "geometry": {
        "type": "Point",
        "coordinates": [
          4.5570882,
          50.9038662
        ]
      },
      "id": "node/963404756"
    },
    {
      "type": "Feature",
      "properties": {
        "@id": "node/972552148",
        "addr:housenumber": "488",
        "addr:street": "Mechelsesteenweg",
        "amenity": "cafe",
        "name": "De Tinnen Pot"
      },
      "geometry": {
        "type": "Point",
        "coordinates": [
          4.5067792,
          50.8795284
        ]
      },
      "id": "node/972552148"
    },
    {
      "type": "Feature",
      "properties": {
        "@id": "node/973656207",
        "amenity": "cafe",
        "name": "De Schuur"
      },
      "geometry": {
        "type": "Point",
        "coordinates": [
          4.5697657,
          50.9048317
        ]
      },
      "id": "node/973656207"
    },
    {
      "type": "Feature",
      "properties": {
        "@id": "node/973664897",
        "amenity": "cafe",
        "name": "Tifanny's"
      },
      "geometry": {
        "type": "Point",
        "coordinates": [
          4.6209945,
          50.9378892
        ]
      },
      "id": "node/973664897"
    },
    {
      "type": "Feature",
      "properties": {
        "@id": "node/992814348",
        "amenity": "cafe",
        "name": "Belle Vue"
      },
      "geometry": {
        "type": "Point",
        "coordinates": [
          4.6894595,
          50.7821614
        ]
      },
      "id": "node/992814348"
    },
    {
      "type": "Feature",
      "properties": {
        "@id": "node/992834430",
        "addr:city": "Grez-Doiceau",
        "addr:housenumber": "99",
        "addr:postcode": "1390",
        "addr:street": "Chaussée de Wavre",
        "amenity": "cafe",
        "email": "soegito_bingo@hotmail.com",
        "food": "yes",
        "level": "1",
        "name": "La Terrasse",
        "opening_hours": "Mo, Th 11:30-14:30, 17:00-24:00; Tu 17:00-24:00; We 12:00-14:300, 17:00-24:00; Fr 11:30-14:30, 17:00-01:00; Sa 12:00-14:30, 17:00-01:00; Su 10:30-14:30, 17:00-24:00",
        "outdoor_seating": "yes",
        "phone": "+32 10 24 74 88",
        "wheelchair": "yes"
      },
      "geometry": {
        "type": "Point",
        "coordinates": [
          4.6963894,
          50.7515397
        ]
      },
      "id": "node/992834430"
    },
    {
      "type": "Feature",
      "properties": {
        "@id": "node/992920123",
        "amenity": "cafe",
        "name": "Café de l'Abeille"
      },
      "geometry": {
        "type": "Point",
        "coordinates": [
          4.6669147,
          50.7532493
        ]
      },
      "id": "node/992920123"
    },
    {
      "type": "Feature",
      "properties": {
        "@id": "node/999580076",
        "addr:city": "Heverlee",
        "addr:country": "BE",
        "addr:housenumber": "2",
        "addr:postcode": "3001",
        "addr:street": "Groenveldstraat",
        "amenity": "cafe",
        "name": "groenveld"
      },
      "geometry": {
        "type": "Point",
        "coordinates": [
          4.6831674,
          50.8767391
        ]
      },
      "id": "node/999580076"
    },
    {
      "type": "Feature",
      "properties": {
        "@id": "node/1054668290",
        "addr:housenumber": "52",
        "addr:street": "Baron August De Becker Remyplein",
        "amenity": "cafe",
        "name": "Café Tempo"
      },
      "geometry": {
        "type": "Point",
        "coordinates": [
          4.7200054,
          50.8849848
        ]
      },
      "id": "node/1054668290"
    },
    {
      "type": "Feature",
      "properties": {
        "@id": "node/1054789516",
        "addr:housenumber": "44",
        "addr:postcode": "2950",
        "addr:street": "Dorpsstraat",
        "alt_name": "Lunchbar Me Gusta",
        "amenity": "cafe",
        "cuisine": "sandwich",
        "email": "me.gusta@skynet.be",
        "name": "Me Gusta",
        "opening_hours": "Mo-Th 07:00-15:00; Fr 07:00-14:00; SH Mo-Fr 09:00-14:00; Sa,Su,PH off",
        "phone": "+32 3 313 54 74",
        "takeaway": "yes"
      },
      "geometry": {
        "type": "Point",
        "coordinates": [
          4.428436,
          51.3163518
        ]
      },
      "id": "node/1054789516"
    },
    {
      "type": "Feature",
      "properties": {
        "@id": "node/1061921236",
        "addr:housenumber": "243",
        "addr:street": "Chaussée de Huy",
        "amenity": "cafe",
        "entrance": "main",
        "name": "Le Café de la Poste",
        "opening_hours": "Mo-Fr 11:30-14:00,18:30-22:00",
        "phone": "+32 10 68 82 42",
        "website": "http://www.cafedelaposte.be"
      },
      "geometry": {
        "type": "Point",
        "coordinates": [
          4.6948136,
          50.6838903
        ]
      },
      "id": "node/1061921236"
    },
    {
      "type": "Feature",
      "properties": {
        "@id": "node/1078589903",
        "amenity": "cafe",
        "name": "Café Queen's"
      },
      "geometry": {
        "type": "Point",
        "coordinates": [
          4.4186869,
          50.8916665
        ]
      },
      "id": "node/1078589903"
    },
    {
      "type": "Feature",
      "properties": {
        "@id": "node/1078601371",
        "addr:street": "Stationsstraat",
        "amenity": "cafe",
        "name": "Café Arbiter"
      },
      "geometry": {
        "type": "Point",
        "coordinates": [
          4.4419196,
          50.8909232
        ]
      },
      "id": "node/1078601371"
    },
    {
      "type": "Feature",
      "properties": {
        "@id": "node/1083462404",
        "addr:housename": "12",
        "addr:postcode": "9280",
        "addr:street": "Kerkstraat",
        "amenity": "cafe",
        "name": "Het Gebaar"
      },
      "geometry": {
        "type": "Point",
        "coordinates": [
          4.1302291,
          51.0004588
        ]
      },
      "id": "node/1083462404"
    },
    {
      "type": "Feature",
      "properties": {
        "@id": "node/1092477321",
        "amenity": "cafe",
        "level": "-1",
        "name": "Java Coffee"
      },
      "geometry": {
        "type": "Point",
        "coordinates": [
          4.4833124,
          50.8980376
        ]
      },
      "id": "node/1092477321"
    },
    {
      "type": "Feature",
      "properties": {
        "@id": "node/1094136069",
        "amenity": "cafe",
        "name": "Games Café"
      },
      "geometry": {
        "type": "Point",
        "coordinates": [
          4.3345839,
          50.8916381
        ]
      },
      "id": "node/1094136069"
    },
    {
      "type": "Feature",
      "properties": {
        "@id": "node/1094479209",
        "addr:city": "Bruxelles - Brussel",
        "addr:housenumber": "620",
        "addr:postcode": "1020",
        "addr:street": "Avenue Houba-de Strooper - Houba-de Strooperlaan",
        "amenity": "cafe",
        "name": "Le Beau Rivage"
      },
      "geometry": {
        "type": "Point",
        "coordinates": [
          4.3304189,
          50.8949795
        ]
      },
      "id": "node/1094479209"
    },
    {
      "type": "Feature",
      "properties": {
        "@id": "node/1106088693",
        "amenity": "cafe",
        "name": "Koning"
      },
      "geometry": {
        "type": "Point",
        "coordinates": [
          4.3569975,
          50.8780618
        ]
      },
      "id": "node/1106088693"
    },
    {
      "type": "Feature",
      "properties": {
        "@id": "node/1106127079",
        "amenity": "cafe",
        "name": "Stadium"
      },
      "geometry": {
        "type": "Point",
        "coordinates": [
          4.337282,
          50.8900681
        ]
      },
      "id": "node/1106127079"
    },
    {
      "type": "Feature",
      "properties": {
        "@id": "node/1113023881",
        "addr:city": "Bruxelles - Brussel",
        "addr:housenumber": "18-20",
        "addr:postcode": "1000",
        "addr:street": "Rue de la Bourse - Beursstraat",
        "amenity": "cafe",
        "contact:phone": "+3225121395",
        "name": "Le Cirio"
      },
      "geometry": {
        "type": "Point",
        "coordinates": [
          4.3507079,
          50.8482872
        ]
      },
      "id": "node/1113023881"
    },
    {
      "type": "Feature",
      "properties": {
        "@id": "node/1127916397",
        "amenity": "cafe",
        "name": "Parochiehuis St-Bavo"
      },
      "geometry": {
        "type": "Point",
        "coordinates": [
          4.2622319,
          50.8861515
        ]
      },
      "id": "node/1127916397"
    },
    {
      "type": "Feature",
      "properties": {
        "@id": "node/1134154324",
        "amenity": "cafe"
      },
      "geometry": {
        "type": "Point",
        "coordinates": [
          4.210317,
          51.0017924
        ]
      },
      "id": "node/1134154324"
    },
    {
      "type": "Feature",
      "properties": {
        "@id": "node/1139325324",
        "amenity": "cafe",
        "name": "Le Sphinx"
      },
      "geometry": {
        "type": "Point",
        "coordinates": [
          4.6958012,
          50.7386871
        ]
      },
      "id": "node/1139325324"
    },
    {
      "type": "Feature",
      "properties": {
        "@id": "node/1144079306",
        "amenity": "cafe",
        "name": "Le Débarcadère",
        "opening_hours": "Mo,Tu,Th,Fr 10:00-22:30; We 14:00-22:30; Sa 11:00-23:00; Su 11:00-19:00"
      },
      "geometry": {
        "type": "Point",
        "coordinates": [
          4.0688615,
          50.5742593
        ]
      },
      "id": "node/1144079306"
    },
    {
      "type": "Feature",
      "properties": {
        "@id": "node/1150890541",
        "amenity": "cafe",
        "name": "Ballon"
      },
      "geometry": {
        "type": "Point",
        "coordinates": [
          4.281726,
          50.8778543
        ]
      },
      "id": "node/1150890541"
    },
    {
      "type": "Feature",
      "properties": {
        "@id": "node/1150890635",
        "amenity": "cafe",
        "name": "Fille vlek"
      },
      "geometry": {
        "type": "Point",
        "coordinates": [
          4.2905565,
          50.8759106
        ]
      },
      "id": "node/1150890635"
    },
    {
      "type": "Feature",
      "properties": {
        "@id": "node/1186342725",
        "amenity": "cafe",
        "name": "Jodi's"
      },
      "geometry": {
        "type": "Point",
        "coordinates": [
          3.7258746,
          51.0574359
        ]
      },
      "id": "node/1186342725"
    },
    {
      "type": "Feature",
      "properties": {
        "@id": "node/1186959813",
        "amenity": "cafe",
        "brand:wikidata": "Q37158",
        "cuisine": "coffee_shop",
        "name": "Starbucks Antwerpen Centraal Station",
        "operator": "Autogrill Belux",
        "operator:wikidata": "Q22131845",
        "smoking": "no",
        "toilets": "yes",
        "website": "http://www.starbucks.nl/store-locator/search/location/Antwerpen%2C%20Belgi%C3%AB/detail/18780",
        "wifi": "free"
      },
      "geometry": {
        "type": "Point",
        "coordinates": [
          4.4207206,
          51.2169932
        ]
      },
      "id": "node/1186959813"
    },
    {
      "type": "Feature",
      "properties": {
        "@id": "node/1187175074",
        "amenity": "cafe",
        "name": "Le Chat Noir"
      },
      "geometry": {
        "type": "Point",
        "coordinates": [
          3.7264748,
          51.0566547
        ]
      },
      "id": "node/1187175074"
    },
    {
      "type": "Feature",
      "properties": {
        "@id": "node/1189602755",
        "amenity": "cafe",
        "name": "Welcome II"
      },
      "geometry": {
        "type": "Point",
        "coordinates": [
          4.3437624,
          50.8838775
        ]
      },
      "id": "node/1189602755"
    },